t (in s);x (in m);y (in m);theta (in rad);v (in m/s);omega (in rad/s);phi (in rad);phiPoint (in rad/s);deltag (in rad);deltavmax (in rad);V (in m/s);psi (in rad);Vc (in m/s);psic (in rad);hw (in m);fg;fv;gamma;deltav (in rad);deltavmaxsimu (in rad);roll (in rad);pitch (in rad);yaw (in rad);latitude (in decimal degrees);longitude (in decimal degrees);winddir (in rad);windspeed (in m/s);heading (in rad);
0.000191;0.000347;0.000892;1.199995;4.999696;-0.025004;0.099996;-0.025444;0.000000;0.000000;16.238206;1.449589;0.000000;-1.822242;0.000000;0.000000;-186.599768;1.924351;-0.300000;0.300000;5.729359;0.000000;-21.245339;48.376687;-4.492376;186.944688;16.238206;21.245339;
0.020685;0.037475;0.096389;1.199483;4.967605;-0.025627;0.099475;-0.666350;0.000000;0.000000;16.541490;1.508539;0.000000;-1.444937;0.000000;0.000000;-208.039328;1.908113;-0.300000;0.300000;5.699483;0.000000;-21.274698;48.376688;-4.492375;183.567060;16.541490;21.274698;
0.040871;0.073859;0.189833;1.198965;4.936604;-0.026272;0.086024;-1.281566;0.000000;0.000000;16.648843;1.526898;0.000000;-1.791023;-0.000000;0.000000;-215.022990;1.902213;-0.300000;0.300000;4.928785;0.000000;-21.304338;48.376689;-4.492375;182.515192;16.648843;21.304338;
0.061273;0.110451;0.283665;1.198429;4.906430;-0.027192;0.059878;-1.950138;0.000000;0.000000;16.965127;1.625607;0.000000;-1.307635;0.000000;0.000000;-247.962028;1.865697;-0.300000;0.300000;3.430736;0.000000;-21.335049;48.376690;-4.492375;176.859603;16.965127;21.335049;
0.081676;0.146872;0.376912;1.197875;4.875798;-0.027689;0.020088;-2.451793;0.000000;0.000000;15.658240;1.541959;0.000000;-1.614742;0.000000;0.000000;-206.696515;1.896908;-0.300000;0.300000;1.150966;0.000000;-21.366837;48.376690;-4.492374;181.652274;15.658240;21.366837;
0.102062;0.183087;0.469479;1.197310;4.844862;-0.027836;-0.029894;-2.800013;0.000000;0.000000;15.008291;1.442730;0.000000;-1.612259;-0.000000;0.000000;-171.131728;1.925509;-0.300000;0.300000;-1.712809;0.000000;-21.399178;48.376691;-4.492374;187.337651;15.008291;21.399178;
0.122456;0.219137;0.561472;1.196743;4.815122;-0.028300;-0.086997;-3.189310;0.000000;0.000000;16.662456;1.496802;0.000000;-1.427301;-0.000000;0.000000;-206.829526;1.910823;-0.300000;0.300000;-4.984549;0.000000;-21.431703;48.376692;-4.492373;184.239555;16.662456;21.431703;
0.142784;0.254903;0.652588;1.196167;4.785669;-0.028645;-0.151831;-3.483662;0.000000;0.000000;15.853881;1.494822;0.000000;-1.484902;0.000000;0.000000;-196.385885;1.911239;-0.300000;0.300000;-8.699259;0.000000;-21.464665;48.376693;-4.492373;184.352995;15.853881;21.464665;
0.163118;0.290512;0.743148;1.195585;4.757151;-0.029197;-0.222666;-3.776594;0.000000;0.000000;16.111776;1.569834;0.000000;-1.456398;0.000000;0.000000;-221.131504;1.886331;-0.300000;0.300000;-12.757814;0.000000;-21.498038;48.376694;-4.492372;180.055112;16.111776;21.498038;
0.183487;0.326023;0.833308;1.194990;4.728380;-0.029469;-0.299594;-3.920328;0.000000;0.000000;16.980008;1.439453;0.000000;-1.674935;0.000000;0.000000;-193.298643;1.925748;-0.300000;0.300000;-17.165462;0.000000;-21.532114;48.376694;-4.492372;187.525426;16.980008;21.532114;
0.203892;0.361433;0.923054;1.194389;4.700052;-0.029767;-0.379585;-4.001881;0.000000;0.000000;16.308317;1.478484;0.000000;-1.206225;0.000000;0.000000;-197.668990;1.915421;-0.300000;0.300000;-21.748594;0.000000;-21.566565;48.376695;-4.492371;185.289111;16.308317;21.566565;
0.224293;0.396679;1.012227;1.193781;4.672449;-0.030190;-0.461228;-4.047343;0.000000;0.000000;15.075137;1.592127;0.000000;-1.187500;-0.000000;0.000000;-213.082402;1.877276;-0.300000;0.300000;-26.426405;0.000000;-21.601360;48.376696;-4.492371;178.777856;15.075137;21.601360;
0.244692;0.431769;1.100848;1.193166;4.645093;-0.030536;-0.543791;-4.000231;0.000000;0.000000;16.231282;1.511846;0.000000;-1.303937;0.000000;0.000000;-206.917954;1.905179;-0.300000;0.300000;-31.156920;0.000000;-21.636646;48.376697;-4.492370;183.377597;16.231282;21.636646;
0.265111;0.466740;1.189012;1.192542;4.618033;-0.030843;-0.625470;-3.873673;0.000000;0.000000;15.339007;1.544575;0.000000;-1.365163;-0.000000;0.000000;-204.603425;1.894225;-0.300000;0.300000;-35.836802;0.000000;-21.672370;48.376698;-4.492370;181.502390;15.339007;21.672370;
0.285555;0.501607;1.276752;1.191912;4.592547;-0.031661;-0.704666;-3.805301;0.000000;0.000000;16.879309;1.676439;0.000000;-1.881701;0.000000;0.000000;-262.186018;1.840525;-0.300000;0.300000;-40.374382;0.000000;-21.708500;48.376698;-4.492369;173.947100;16.879309;21.708500;
0.305974;0.536293;1.363876;1.191265;4.567421;-0.032430;-0.782366;-3.657793;0.000000;0.000000;16.843608;1.675415;0.000000;-1.744424;0.000000;0.000000;-261.527987;1.840708;-0.300000;0.300000;-44.826290;0.000000;-21.745541;48.376699;-4.492369;174.005820;16.843608;21.745541;
0.326390;0.570839;1.450486;1.190603;4.541076;-0.032499;-0.857041;-3.297838;0.000000;0.000000;15.300349;1.487915;0.000000;-1.887786;0.000000;0.000000;-189.131194;1.911658;-0.300000;0.300000;-49.104850;0.000000;-21.783474;48.376700;-4.492368;184.748759;15.300349;21.783474;
0.346721;0.605102;1.536220;1.189942;4.516503;-0.033122;-0.924092;-3.002091;0.000000;0.000000;15.948371;1.685653;0.000000;-1.231413;0.000000;0.000000;-250.481557;1.835281;-0.300000;0.300000;-52.946546;0.000000;-21.821333;48.376701;-4.492368;173.419170;15.948371;21.821333;
0.367172;0.639435;1.621967;1.189265;4.491469;-0.033444;-0.985486;-2.604360;0.000000;0.000000;15.173203;1.612267;0.000000;-1.386077;0.000000;0.000000;-220.692396;1.867475;-0.300000;0.300000;-56.464175;0.000000;-21.860142;48.376702;-4.492367;177.623890;15.173203;21.860142;
0.387610;0.673616;1.707165;1.188581;4.467299;-0.033970;-1.038715;-2.208142;0.000000;0.000000;16.615301;1.622996;0.000000;-1.817065;0.000000;0.000000;-244.779900;1.862741;-0.300000;0.300000;-59.513988;0.000000;-21.899307;48.376702;-4.492367;177.009178;16.615301;21.899307;
0.408006;0.707599;1.791703;1.187888;4.442371;-0.033992;-1.083751;-1.710857;0.000000;0.000000;16.272668;1.456561;0.000000;-1.205029;0.000000;0.000000;-192.578188;1.919644;-0.300000;0.300000;-62.094372;0.000000;-21.939003;48.376703;-4.492366;186.545215;16.272668;21.939003;
0.428427;0.741494;1.875854;1.187194;4.418257;-0.034234;-1.118690;-1.233890;0.000000;0.000000;16.780531;1.515600;0.000000;-1.639196;0.000000;0.000000;-216.812441;1.902118;-0.300000;0.300000;-64.096194;0.000000;-21.978776;48.376704;-4.492366;183.162496;16.780531;21.978776;
0.448828;0.775228;1.959437;1.186496;4.395179;-0.034760;-1.143861;-0.791837;0.000000;0.000000;16.192754;1.662292;0.000000;-1.369719;0.000000;0.000000;-249.292146;1.844585;-0.300000;0.300000;-65.538433;0.000000;-22.018791;48.376705;-4.492366;174.757681;16.192754;22.018791;
0.469250;0.808879;2.042648;1.185786;4.370940;-0.034652;-1.160032;-0.274626;0.000000;0.000000;15.378992;1.457147;0.000000;-1.350154;-0.000000;0.000000;-182.763432;1.918933;-0.300000;0.300000;-66.464953;0.000000;-22.059463;48.376705;-4.492365;186.511610;15.378992;22.059463;
0.489670;0.842401;2.125372;1.185078;4.347978;-0.034959;-1.165640;0.177752;0.000000;0.000000;15.943920;1.591998;0.000000;-1.338245;0.000000;0.000000;-227.631883;1.873961;-0.300000;0.300000;-66.786274;0.000000;-22.100007;48.376706;-4.492365;178.785257;15.943920;22.100007;
0.510091;0.875805;2.207636;1.184365;4.325702;-0.035417;-1.162011;0.590736;0.000000;0.000000;15.264964;1.706446;0.000000;-1.350878;0.000000;0.000000;-245.853325;1.822475;-0.300000;0.300000;-66.578303;0.000000;-22.140909;48.376707;-4.492364;172.227820;15.264964;22.140909;
0.530512;0.909098;2.289460;1.183641;4.302765;-0.035452;-1.149947;1.025394;0.000000;0.000000;16.086770;1.492297;0.000000;-1.149106;0.000000;0.000000;-202.142689;1.908299;-0.300000;0.300000;-65.887103;0.000000;-22.182349;48.376708;-4.492364;184.497685;16.086770;22.182349;
0.550934;0.942275;2.370827;1.182917;4.281118;-0.035910;-1.129006;1.374782;0.000000;0.000000;15.693839;1.687622;0.000000;-1.118947;0.000000;0.000000;-248.633079;1.831004;-0.300000;0.300000;-64.687300;0.000000;-22.223831;48.376708;-4.492363;173.306397;15.693839;22.223831;
0.571333;0.975305;2.451669;1.182185;4.259575;-0.036263;-1.100962;1.695670;0.000000;0.000000;15.280179;1.677019;0.000000;-1.329926;0.000000;0.000000;-239.763562;1.835732;-0.300000;0.300000;-63.080503;0.000000;-22.265801;48.376709;-4.492363;173.913908;15.280179;22.265801;
0.591781;1.008307;2.532274;1.181443;4.237818;-0.036417;-1.066290;1.998778;0.000000;0.000000;16.788293;1.519641;0.000000;-1.550830;-0.000000;0.000000;-219.815366;1.898936;-0.300000;0.300000;-61.093892;0.000000;-22.308286;48.376710;-4.492362;182.930976;16.788293;22.308286;
0.612250;1.041235;2.612526;1.180698;4.216964;-0.036840;-1.025376;2.214961;0.000000;0.000000;16.220346;1.658087;0.000000;-1.742491;0.000000;0.000000;-250.110818;1.843876;-0.300000;0.300000;-58.749726;0.000000;-22.350996;48.376710;-4.492362;174.998591;16.220346;22.350996;
0.632672;1.073984;2.692175;1.179946;4.195571;-0.036883;-0.980142;2.434814;0.000000;0.000000;15.660653;1.539704;0.000000;-1.704004;-0.000000;0.000000;-210.969324;1.891583;-0.300000;0.300000;-56.158021;0.000000;-22.394102;48.376711;-4.492361;181.781437;15.660653;22.394102;
0.653080;1.106604;2.771341;1.179193;4.174156;-0.036798;-0.930452;2.623508;0.000000;0.000000;16.125684;1.468972;0.000000;-1.849073;0.000000;0.000000;-197.090371;1.913858;-0.300000;0.300000;-53.310998;0.000000;-22.437230;48.376712;-4.492361;185.834104;16.125684;22.437230;
0.673485;1.139113;2.850068;1.178442;4.153663;-0.036995;-0.876919;2.708922;0.000000;0.000000;16.946426;1.535817;0.000000;-1.684929;0.000000;0.000000;-227.587392;1.892417;-0.300000;0.300000;-50.243785;0.000000;-22.480252;48.376713;-4.492361;182.004191;16.946426;22.480252;
0.693895;1.171528;2.928402;1.177687;4.132878;-0.036956;-0.821631;2.782151;0.000000;0.000000;16.250528;1.481509;0.000000;-1.212052;-0.000000;0.000000;-202.770158;1.909762;-0.300000;0.300000;-47.075963;0.000000;-22.523514;48.376713;-4.492360;185.115812;16.250528;22.523514;
0.714318;1.203860;3.006366;1.176932;4.113497;-0.037411;-0.764813;2.700639;0.000000;0.000000;16.538211;1.661231;0.000000;-1.376425;0.000000;0.000000;-256.796791;1.840689;-0.300000;0.300000;-43.820550;0.000000;-22.566756;48.376714;-4.492360;174.818466;16.538211;22.566756;
0.734737;1.236094;3.083932;1.176168;4.093060;-0.037297;-0.709666;2.683462;0.000000;0.000000;15.507354;1.492055;0.000000;-1.134020;0.000000;0.000000;-196.870317;1.906095;-0.300000;0.300000;-40.660862;0.000000;-22.610526;48.376715;-4.492359;184.511570;15.507354;22.610526;
0.755182;1.268267;3.161182;1.175406;4.073072;-0.037285;-0.654803;2.594656;0.000000;0.000000;15.132279;1.549066;0.000000;-1.206611;-0.000000;0.000000;-207.487698;1.886612;-0.300000;0.300000;-37.517445;0.000000;-22.654216;48.376715;-4.492359;181.245082;15.132279;22.654216;
0.775575;1.300259;3.237834;1.174645;4.054802;-0.037879;-0.601892;2.315861;0.000000;0.000000;16.780848;1.711339;0.000000;-1.122690;0.000000;0.000000;-273.901908;1.815129;-0.300000;0.300000;-34.485857;0.000000;-22.697780;48.376716;-4.492358;171.947517;16.780848;22.697780;
0.795978;1.332182;3.314156;1.173872;4.035079;-0.037740;-0.554641;2.170330;0.000000;0.000000;15.129898;1.507176;0.000000;-1.845820;-0.000000;0.000000;-196.781497;1.900556;-0.300000;0.300000;-31.778608;0.000000;-22.742061;48.376717;-4.492358;183.645160;15.129898;22.742061;
0.816377;1.364003;3.390070;1.173103;4.015796;-0.037695;-0.510368;1.967239;0.000000;0.000000;15.136547;1.541995;0.000000;-1.410384;-0.000000;0.000000;-206.300389;1.888341;-0.300000;0.300000;-29.241916;0.000000;-22.786172;48.376717;-4.492358;181.650201;15.136547;22.786172;
0.836797;1.395762;3.465674;1.172333;3.996053;-0.037370;-0.470196;1.807554;0.000000;0.000000;15.260894;1.422651;0.000000;-1.126372;0.000000;0.000000;-175.357652;1.924360;-0.300000;0.300000;-26.940264;0.000000;-22.830275;48.376718;-4.492357;188.488083;15.260894;22.830275;
0.857218;1.427424;3.540882;1.171570;3.978422;-0.037858;-0.433285;1.408450;0.000000;0.000000;16.219526;1.699591;0.000000;-1.272219;0.000000;0.000000;-262.654402;1.819527;-0.300000;0.300000;-24.825409;0.000000;-22.873998;48.376719;-4.492357;172.620625;16.219526;22.873998;
0.877618;1.458971;3.615659;1.170797;3.959204;-0.037554;-0.404553;1.203299;0.000000;0.000000;15.081139;1.439919;0.000000;-1.188589;0.000000;0.000000;-178.580436;1.919546;-0.300000;0.300000;-23.179186;0.000000;-22.918247;48.376720;-4.492356;187.498732;15.081139;22.918247;
0.898051;1.490475;3.690172;1.170030;3.941323;-0.037750;-0.379966;0.850189;0.000000;0.000000;15.186613;1.637130;0.000000;-1.210264;0.000000;0.000000;-231.701350;1.848560;-0.300000;0.300000;-21.770440;0.000000;-22.962213;48.376720;-4.492356;176.199366;15.186613;22.962213;
0.918458;1.521853;3.764232;1.169260;3.923248;-0.037758;-0.362615;0.543408;0.000000;0.000000;15.215970;1.556370;0.000000;-1.796687;-0.000000;0.000000;-212.135407;1.881631;-0.300000;0.300000;-20.776337;0.000000;-23.006354;48.376721;-4.492355;180.826543;15.215970;23.006354;
0.938880;1.553166;3.837978;1.168489;3.906087;-0.038069;-0.351518;0.152312;0.000000;0.000000;16.083743;1.635833;0.000000;-1.292196;0.000000;0.000000;-245.450320;1.848451;-0.300000;0.300000;-20.140519;0.000000;-23.050533;48.376722;-4.492355;176.273648;16.083743;23.050533;
0.959301;1.584399;3.911376;1.167711;3.888972;-0.038301;-0.348408;-0.210148;0.000000;0.000000;16.703416;1.574941;0.000000;-1.861715;-0.000000;0.000000;-238.542664;1.873866;-0.300000;0.300000;-19.962305;0.000000;-23.095076;48.376722;-4.492355;179.762507;16.703416;23.095076;
0.979679;1.615485;3.984274;1.166931;3.872540;-0.038712;-0.352690;-0.608800;0.000000;0.000000;16.626548;1.656556;0.000000;-1.194687;0.000000;0.000000;-259.538347;1.838212;-0.300000;0.300000;-20.207667;0.000000;-23.139795;48.376723;-4.492354;175.086326;16.626548;23.139795;
1.000103;1.646566;4.057004;1.166140;3.854792;-0.038483;-0.365125;-0.808365;0.000000;0.000000;16.376836;1.427561;0.000000;-1.777674;0.000000;0.000000;-191.573600;1.921564;-0.300000;0.300000;-20.920095;0.000000;-23.185096;48.376723;-4.492354;188.206787;16.376836;23.185096;
1.020524;1.677558;4.129366;1.165354;3.838298;-0.038711;-0.381632;-1.110508;0.000000;0.000000;16.864863;1.570870;0.000000;-1.481854;0.000000;0.000000;-240.361654;1.874545;-0.300000;0.300000;-21.865914;0.000000;-23.230123;48.376724;-4.492353;179.995791;16.864863;23.230123;
1.040952;1.708485;4.201418;1.164563;3.821130;-0.038566;-0.404318;-1.280508;0.000000;0.000000;16.621475;1.446644;0.000000;-1.637673;0.000000;0.000000;-200.791725;1.916035;-0.300000;0.300000;-23.165706;0.000000;-23.275432;48.376725;-4.492353;187.113382;16.621475;23.275432;
1.061401;1.739361;4.273197;1.163775;3.804196;-0.038453;-0.430503;-1.427854;0.000000;0.000000;16.150991;1.474517;0.000000;-1.163036;-0.000000;0.000000;-203.538804;1.907684;-0.300000;0.300000;-24.666004;0.000000;-23.320617;48.376725;-4.492352;185.516396;16.150991;23.320617;
1.081806;1.770090;4.344478;1.162990;3.787702;-0.038438;-0.459637;-1.567877;0.000000;0.000000;15.621338;1.534239;0.000000;-1.475670;0.000000;0.000000;-213.539018;1.887496;-0.300000;0.300000;-26.335278;0.000000;-23.365572;48.376726;-4.492352;182.094564;15.621338;23.365572;
1.102228;1.800768;4.415487;1.162205;3.770945;-0.038240;-0.491656;-1.624291;0.000000;0.000000;15.436692;1.469122;0.000000;-1.496665;-0.000000;0.000000;-193.471838;1.908843;-0.300000;0.300000;-28.169839;0.000000;-23.410547;48.376727;-4.492352;185.825489;15.436692;23.410547;
1.122623;1.831325;4.486065;1.161425;3.755697;-0.038604;-0.524784;-1.794181;0.000000;0.000000;15.272535;1.719449;0.000000;-1.322432;0.000000;0.000000;-254.026792;1.804052;-0.300000;0.300000;-30.067916;0.000000;-23.455233;48.376727;-4.492351;171.482810;15.272535;23.455233;
1.142956;1.861721;4.556120;1.160640;3.740257;-0.038777;-0.561266;-1.877234;0.000000;0.000000;15.791540;1.604922;0.000000;-1.533490;-0.000000;0.000000;-235.152594;1.858593;-0.300000;0.300000;-32.158154;0.000000;-23.500207;48.376728;-4.492351;178.044753;15.791540;23.500207;
1.163345;1.892130;4.626056;1.159850;3.725424;-0.039145;-0.599541;-1.972097;0.000000;0.000000;16.404842;1.654948;0.000000;-1.728994;-0.000000;0.000000;-257.463004;1.835634;-0.300000;0.300000;-34.351162;0.000000;-23.545507;48.376729;-4.492350;175.178462;16.404842;23.545507;
1.183739;1.922481;4.695708;1.159051;3.710374;-0.039336;-0.639760;-1.984044;0.000000;0.000000;15.354917;1.650357;0.000000;-1.460340;-0.000000;0.000000;-240.083772;1.837430;-0.300000;0.300000;-36.655572;0.000000;-23.591249;48.376729;-4.492350;175.441500;15.354917;23.591249;
1.204181;1.952835;4.765214;1.158247;3.694638;-0.039173;-0.680317;-1.872720;0.000000;0.000000;15.330357;1.502441;0.000000;-1.808104;0.000000;0.000000;-202.330583;1.896955;-0.300000;0.300000;-38.979312;0.000000;-23.637320;48.376730;-4.492350;183.916484;15.330357;23.637320;
1.224613;1.983103;4.834371;1.157447;3.679164;-0.039055;-0.718581;-1.738145;0.000000;0.000000;15.399826;1.512810;0.000000;-1.286140;0.000000;0.000000;-206.263305;1.893135;-0.300000;0.300000;-41.171673;0.000000;-23.683179;48.376730;-4.492349;183.322375;15.399826;23.683179;
1.245015;2.013254;4.903112;1.156650;3.664684;-0.039283;-0.754043;-1.652119;0.000000;0.000000;15.639528;1.644261;0.000000;-1.553623;-0.000000;0.000000;-243.638209;1.839164;-0.300000;0.300000;-43.203487;0.000000;-23.728832;48.376731;-4.492349;175.790785;15.639528;23.728832;
1.265435;2.043366;4.971615;1.155848;3.649818;-0.039276;-0.787778;-1.486340;0.000000;0.000000;15.208100;1.570593;0.000000;-1.674596;0.000000;0.000000;-219.088117;1.870879;-0.300000;0.300000;-45.136352;0.000000;-23.774791;48.376732;-4.492348;180.011651;15.208100;23.774791;
1.285767;2.073284;5.039529;1.155049;3.634901;-0.039154;-0.818000;-1.273964;0.000000;0.000000;15.139062;1.524375;0.000000;-1.604225;-0.000000;0.000000;-206.440370;1.888196;-0.300000;0.300000;-46.867919;0.000000;-23.820546;48.376732;-4.492348;182.659763;15.139062;23.820546;
1.306169;2.103234;5.107369;1.154251;3.620661;-0.039279;-0.843990;-1.093763;0.000000;0.000000;15.850099;1.586249;0.000000;-1.375060;0.000000;0.000000;-232.850511;1.863801;-0.300000;0.300000;-48.357083;0.000000;-23.866314;48.376733;-4.492348;179.114614;15.850099;23.866314;
1.326590;2.133149;5.174984;1.153448;3.606192;-0.039242;-0.866326;-0.867049;0.000000;0.000000;16.620544;1.485717;0.000000;-1.549125;-0.000000;0.000000;-215.855018;1.900903;-0.300000;0.300000;-49.636813;0.000000;-23.912271;48.376734;-4.492347;184.874679;16.620544;23.912271;
1.346894;2.162829;5.241921;1.152652;3.592094;-0.039266;-0.883931;-0.644399;0.000000;0.000000;15.587779;1.558581;0.000000;-1.261269;0.000000;0.000000;-222.265702;1.874386;-0.300000;0.300000;-50.645502;0.000000;-23.957923;48.376734;-4.492347;180.699862;15.587779;23.957923;
1.367312;2.192611;5.308945;1.151850;3.578613;-0.039520;-0.897088;-0.460007;0.000000;0.000000;15.599434;1.658942;0.000000;-1.446966;-0.000000;0.000000;-247.686792;1.829886;-0.300000;0.300000;-51.399365;0.000000;-24.003859;48.376735;-4.492346;174.949630;15.599434;24.003859;
1.387598;2.222142;5.375261;1.151048;3.565677;-0.039894;-0.906420;-0.298774;0.000000;0.000000;16.150169;1.682982;0.000000;-1.262353;-0.000000;0.000000;-262.461078;1.817571;-0.300000;0.300000;-51.934015;0.000000;-24.049792;48.376735;-4.492346;173.572224;16.150169;24.049792;
1.408063;2.251880;5.441898;1.150232;3.551569;-0.039748;-0.912534;-0.042244;0.000000;0.000000;15.105789;1.524670;0.000000;-1.621332;-0.000000;0.000000;-207.312695;1.886348;-0.300000;0.300000;-52.284349;0.000000;-24.096570;48.376736;-4.492346;182.642841;15.105789;24.096570;
1.428473;2.281475;5.508070;1.149421;3.537743;-0.039650;-0.913396;0.197670;0.000000;0.000000;15.114835;1.540778;0.000000;-1.359594;0.000000;0.000000;-211.805517;1.880038;-0.300000;0.300000;-52.333750;0.000000;-24.143052;48.376737;-4.492345;181.719905;15.114835;24.143052;
1.448871;2.310991;5.573919;1.148612;3.524908;-0.039914;-0.909364;0.360112;0.000000;0.000000;15.709794;1.661558;0.000000;-1.247582;0.000000;0.000000;-250.833663;1.827035;-0.300000;0.300000;-52.102734;0.000000;-24.189391;48.376737;-4.492345;174.799731;15.709794;24.189391;
1.469292;2.340486;5.639582;1.147797;3.511994;-0.040081;-0.902010;0.525152;0.000000;0.000000;15.569508;1.632021;0.000000;-1.281337;-0.000000;0.000000;-241.722486;1.840752;-0.300000;0.300000;-51.681383;0.000000;-24.236092;48.376738;-4.492344;176.492085;15.569508;24.236092;
1.489617;2.369788;5.704672;1.146982;3.499158;-0.040190;-0.891337;0.682317;0.000000;0.000000;16.877577;1.537849;0.000000;-1.215475;-0.000000;0.000000;-236.365411;1.880226;-0.300000;0.300000;-51.069825;0.000000;-24.282768;48.376738;-4.492344;181.887758;16.877577;24.282768;
1.509913;2.398993;5.769407;1.146166;3.485684;-0.039960;-0.877488;0.883080;0.000000;0.000000;16.430401;1.432130;0.000000;-1.151997;0.000000;0.000000;-199.647364;1.914957;-0.300000;0.300000;-50.276378;0.000000;-24.329503;48.376739;-4.492344;187.945009;16.430401;24.329503;
1.530225;2.428162;5.833920;1.145355;3.472928;-0.039993;-0.859551;1.012890;0.000000;0.000000;15.988285;1.548535;0.000000;-1.355234;-0.000000;0.000000;-227.235300;1.875472;-0.300000;0.300000;-49.248662;0.000000;-24.376008;48.376739;-4.492343;181.275455;15.988285;24.376008;
1.550521;2.457255;5.898125;1.144543;3.460703;-0.040190;-0.838993;1.085958;0.000000;0.000000;16.040285;1.615169;0.000000;-1.788715;0.000000;0.000000;-245.609533;1.846989;-0.300000;0.300000;-48.070760;0.000000;-24.422516;48.376740;-4.492343;177.457628;16.040285;24.422516;
1.570784;2.486249;5.961976;1.143729;3.448832;-0.040466;-0.816988;1.116767;0.000000;0.000000;15.480564;1.692744;0.000000;-1.482059;0.000000;0.000000;-255.460571;1.808800;-0.300000;0.300000;-46.809967;0.000000;-24.469176;48.376741;-4.492342;173.012921;15.480564;24.469176;
1.591073;2.515231;6.025663;1.142908;3.436503;-0.040490;-0.794330;1.172448;0.000000;0.000000;15.981254;1.553768;0.000000;-1.623282;-0.000000;0.000000;-229.187159;1.872442;-0.300000;0.300000;-45.511780;0.000000;-24.516216;48.376741;-4.492342;180.975650;15.981254;24.516216;
1.611391;2.544205;6.089191;1.142085;3.423554;-0.040207;-0.770508;1.267638;0.000000;0.000000;16.061872;1.428910;0.000000;-1.662869;-0.000000;0.000000;-195.420940;1.914716;-0.300000;0.300000;-44.146882;0.000000;-24.563352;48.376742;-4.492342;188.129505;16.061872;24.563352;
1.631709;2.573120;6.152455;1.141268;3.410774;-0.039955;-0.744753;1.332588;0.000000;0.000000;15.530770;1.457549;0.000000;-1.342828;0.000000;0.000000;-197.263015;1.905989;-0.300000;0.300000;-42.671210;0.000000;-24.610158;48.376742;-4.492341;186.488571;15.530770;24.610158;
1.652091;2.602070;6.215659;1.140454;3.399637;-0.040373;-0.717592;1.225769;0.000000;0.000000;16.246092;1.695806;0.000000;-1.413587;-0.000000;0.000000;-269.585949;1.805480;-0.300000;0.300000;-41.115004;0.000000;-24.656817;48.376743;-4.492341;172.837446;16.246092;24.656817;
1.672391;2.630861;6.278379;1.139634;3.387404;-0.040239;-0.692709;1.216269;0.000000;0.000000;15.923943;1.487573;0.000000;-1.836369;0.000000;0.000000;-211.208639;1.895693;-0.300000;0.300000;-39.689304;0.000000;-24.703775;48.376743;-4.492340;184.768361;15.923943;24.703775;
1.692653;2.659545;6.340732;1.138819;3.376353;-0.040552;-0.668065;1.082625;0.000000;0.000000;16.917918;1.612362;0.000000;-1.744655;-0.000000;0.000000;-259.825503;1.845666;-0.300000;0.300000;-38.277325;0.000000;-24.750489;48.376744;-4.492340;177.618445;16.917918;24.750489;
1.712951;2.688239;6.402972;1.137996;3.364792;-0.040596;-0.646090;0.990431;0.000000;0.000000;15.595578;1.580771;0.000000;-1.346264;-0.000000;0.000000;-231.844090;1.859255;-0.300000;0.300000;-37.018206;0.000000;-24.797652;48.376745;-4.492340;179.428518;15.595578;24.797652;
1.733325;2.716991;6.465204;1.137169;3.353770;-0.040836;-0.625911;0.833984;0.000000;0.000000;15.541752;1.673838;0.000000;-1.408391;0.000000;0.000000;-253.656291;1.815175;-0.300000;0.300000;-35.862047;0.000000;-24.845041;48.376745;-4.492339;174.096135;15.541752;24.845041;
1.753699;2.745701;6.527210;1.136337;3.341868;-0.040647;-0.608919;0.767055;0.000000;0.000000;15.363073;1.499069;0.000000;-1.591675;-0.000000;0.000000;-207.733076;1.890562;-0.300000;0.300000;-34.888502;0.000000;-24.892711;48.376746;-4.492339;184.109647;15.363073;24.892711;
1.774033;2.774304;6.588849;1.135510;3.329999;-0.040422;-0.593322;0.699096;0.000000;0.000000;15.833356;1.457642;0.000000;-1.863648;0.000000;0.000000;-202.764063;1.904161;-0.300000;0.300000;-33.994852;0.000000;-24.940066;48.376746;-4.492338;186.483278;15.833356;24.940066;
1.794332;2.802807;6.650141;1.134690;3.318431;-0.040279;-0.579131;0.603069;0.000000;0.000000;16.945336;1.435568;0.000000;-1.796312;0.000000;0.000000;-210.514931;1.910656;-0.300000;0.300000;-33.181780;0.000000;-24.987078;48.376747;-4.492338;187.748038;16.945336;24.987078;
1.814648;2.831285;6.711250;1.133871;3.307123;-0.040211;-0.566879;0.482071;0.000000;0.000000;15.584602;1.523400;0.000000;-1.552337;0.000000;0.000000;-217.902698;1.880735;-0.300000;0.300000;-32.479772;0.000000;-25.033965;48.376747;-4.492338;182.715620;15.584602;25.033965;
1.835047;2.859833;6.772376;1.133051;3.296680;-0.040485;-0.557045;0.269814;0.000000;0.000000;15.206244;1.701302;0.000000;-1.278913;0.000000;0.000000;-255.141555;1.798621;-0.300000;0.300000;-31.916331;0.000000;-25.080963;48.376748;-4.492337;172.522566;15.206244;25.080963;
1.855370;2.888232;6.833054;1.132228;3.286111;-0.040631;-0.551562;0.088613;0.000000;0.000000;15.359993;1.634521;0.000000;-1.638473;0.000000;0.000000;-242.754723;1.832213;-0.300000;0.300000;-31.602165;0.000000;-25.128103;48.376748;-4.492337;176.348838;15.359993;25.128103;
1.875709;2.916614;6.893567;1.131402;3.275097;-0.040543;-0.549759;-0.030328;0.000000;0.000000;16.415554;1.479374;0.000000;-1.843245;0.000000;0.000000;-217.736869;1.895684;-0.300000;0.300000;-31.498898;0.000000;-25.175453;48.376749;-4.492337;185.238116;16.415554;25.175453;
1.896039;2.944938;6.953824;1.130578;3.264754;-0.040697;-0.550376;-0.205097;0.000000;0.000000;15.581837;1.622975;0.000000;-1.764978;-0.000000;0.000000;-243.888590;1.836928;-0.300000;0.300000;-31.534225;0.000000;-25.222678;48.376750;-4.492336;177.010402;15.581837;25.222678;
1.916411;2.973280;7.013992;1.129748;3.254074;-0.040668;-0.554554;-0.325459;0.000000;0.000000;15.923916;1.526735;0.000000;-1.183848;0.000000;0.000000;-224.655129;1.877887;-0.300000;0.300000;-31.773617;0.000000;-25.270180;48.376750;-4.492336;182.524512;15.923916;25.270180;
1.936721;3.001494;7.073759;1.128922;3.243818;-0.040764;-0.561164;-0.466194;0.000000;0.000000;16.202091;1.561550;0.000000;-1.508836;0.000000;0.000000;-238.181031;1.863550;-0.300000;0.300000;-32.152357;0.000000;-25.317506;48.376751;-4.492335;180.529800;16.202091;25.317506;
1.957113;3.029781;7.133554;1.128091;3.233938;-0.040991;-0.570671;-0.627687;0.000000;0.000000;16.553583;1.597093;0.000000;-1.813972;0.000000;0.000000;-253.038893;1.847732;-0.300000;0.300000;-32.697046;0.000000;-25.365134;48.376751;-4.492335;178.493329;16.553583;25.365134;
1.977504;3.058029;7.193137;1.127255;3.223377;-0.040878;-0.583470;-0.688328;0.000000;0.000000;15.394878;1.523784;0.000000;-1.494436;-0.000000;0.000000;-217.070477;1.878066;-0.300000;0.300000;-33.430358;0.000000;-25.413022;48.376752;-4.492335;182.693632;15.394878;25.413022;
1.997791;3.086092;7.252203;1.126426;3.212823;-0.040710;-0.597434;-0.717924;0.000000;0.000000;15.385869;1.497571;0.000000;-1.644700;0.000000;0.000000;-210.280646;1.887550;-0.300000;0.300000;-34.230454;0.000000;-25.460538;48.376752;-4.492334;184.195517;15.385869;25.460538;
2.018084;3.114120;7.311070;1.125600;3.203131;-0.040875;-0.612003;-0.813132;0.000000;0.000000;16.055131;1.597074;0.000000;-1.202789;0.000000;0.000000;-246.048204;1.846611;-0.300000;0.300000;-35.065191;0.000000;-25.507872;48.376753;-4.492334;178.494391;16.055131;25.507872;
2.038375;3.142108;7.369728;1.124771;3.193472;-0.041006;-0.628502;-0.882702;0.000000;0.000000;16.285456;1.572220;0.000000;-1.450149;-0.000000;0.000000;-243.330188;1.857248;-0.300000;0.300000;-36.010518;0.000000;-25.555392;48.376753;-4.492333;179.918413;16.285456;25.555392;
2.058693;3.170099;7.428265;1.123937;3.183736;-0.041067;-0.646437;-0.916599;0.000000;0.000000;15.165219;1.611392;0.000000;-1.133005;0.000000;0.000000;-236.203769;1.839255;-0.300000;0.300000;-37.038099;0.000000;-25.603129;48.376754;-4.492333;177.674059;15.165219;25.603129;
2.078987;3.198020;7.486533;1.123104;3.173585;-0.040906;-0.665039;-0.878744;0.000000;0.000000;15.771112;1.481476;0.000000;-1.623155;-0.000000;0.000000;-212.054486;1.892098;-0.300000;0.300000;-38.103910;0.000000;-25.650881;48.376754;-4.492333;185.117669;15.771112;25.650881;
2.099297;3.225922;7.544636;1.122273;3.163503;-0.040745;-0.682886;-0.823801;0.000000;0.000000;15.718063;1.480497;0.000000;-1.668865;0.000000;0.000000;-211.301404;1.892148;-0.300000;0.300000;-39.126479;0.000000;-25.698482;48.376755;-4.492332;185.173751;15.718063;25.698482;
2.119577;3.253742;7.602447;1.121447;3.154508;-0.041008;-0.699593;-0.851405;0.000000;0.000000;16.499580;1.609092;0.000000;-1.243200;0.000000;0.000000;-257.037625;1.839162;-0.300000;0.300000;-40.083718;0.000000;-25.745827;48.376755;-4.492332;177.805814;16.499580;25.745827;
2.139870;3.281549;7.660107;1.120615;3.145619;-0.041270;-0.716870;-0.863428;0.000000;0.000000;15.389250;1.689876;0.000000;-1.118966;-0.000000;0.000000;-258.430572;1.798084;-0.300000;0.300000;-41.073644;0.000000;-25.793506;48.376756;-4.492332;173.177247;15.389250;25.793506;
2.160220;3.309403;7.717743;1.119775;3.136912;-0.041572;-0.734441;-0.869113;0.000000;0.000000;16.300337;1.649105;0.000000;-1.486906;-0.000000;0.000000;-264.262009;1.818906;-0.300000;0.300000;-42.080377;0.000000;-25.841626;48.376756;-4.492331;175.513238;16.300337;25.841626;
2.180607;3.337278;7.775298;1.118927;3.127969;-0.041733;-0.752159;-0.828128;0.000000;0.000000;15.821450;1.622491;0.000000;-1.146672;0.000000;0.000000;-250.349167;1.831614;-0.300000;0.300000;-43.095545;0.000000;-25.890184;48.376757;-4.492331;177.038134;15.821450;25.890184;
2.201004;3.365138;7.832698;1.118076;3.118648;-0.041693;-0.769051;-0.729280;0.000000;0.000000;15.986765;1.528712;0.000000;-1.865374;-0.000000;0.000000;-229.198313;1.872543;-0.300000;0.300000;-44.063388;0.000000;-25.938957;48.376757;-4.492330;182.411240;15.986765;25.938957;
2.221409;3.392973;7.889923;1.117225;3.109039;-0.041498;-0.783932;-0.585669;0.000000;0.000000;16.700040;1.433240;0.000000;-1.827044;0.000000;0.000000;-212.024144;1.906082;-0.300000;0.300000;-44.915997;0.000000;-25.987701;48.376758;-4.492330;187.881415;16.700040;25.987701;
2.241805;3.420759;7.946924;1.116379;3.100881;-0.041889;-0.795877;-0.557998;0.000000;0.000000;16.808994;1.656523;0.000000;-1.515256;0.000000;0.000000;-275.194075;1.813406;-0.300000;0.300000;-45.600419;0.000000;-26.036196;48.376758;-4.492330;175.088206;16.808994;26.036196;
2.262109;3.448394;8.003494;1.115528;3.092375;-0.042064;-0.807207;-0.478728;0.000000;0.000000;15.301658;1.670445;0.000000;-1.880525;0.000000;0.000000;-253.809727;1.805729;-0.300000;0.300000;-46.249546;0.000000;-26.084926;48.376759;-4.492329;174.290533;15.301658;26.084926;
2.282433;3.476029;8.059942;1.114674;3.083213;-0.041925;-0.816937;-0.328769;0.000000;0.000000;16.164971;1.482762;0.000000;-1.572897;-0.000000;0.000000;-220.068885;1.888661;-0.300000;0.300000;-46.807017;0.000000;-26.133909;48.376759;-4.492329;185.043987;16.164971;26.133909;
2.302699;3.503552;8.116039;1.113824;3.075246;-0.042253;-0.823599;-0.272489;0.000000;0.000000;15.738092;1.713260;0.000000;-1.853990;-0.000000;0.000000;-270.912955;1.781470;-0.300000;0.300000;-47.188773;0.000000;-26.182591;48.376760;-4.492329;171.837458;15.738092;26.182591;
2.323005;3.531105;8.172077;1.112966;3.067034;-0.042437;-0.829133;-0.186220;0.000000;0.000000;16.880242;1.577562;0.000000;-1.790594;0.000000;0.000000;-256.846045;1.849723;-0.300000;0.300000;-47.505799;0.000000;-26.231750;48.376760;-4.492328;179.612336;16.880242;26.231750;
2.343314;3.558636;8.227949;1.112104;3.058150;-0.042298;-0.832914;-0.035319;0.000000;0.000000;15.323276;1.532419;0.000000;-1.332383;0.000000;0.000000;-222.147765;1.868649;-0.300000;0.300000;-47.722482;0.000000;-26.281129;48.376761;-4.492328;182.198886;15.323276;26.281129;
2.363733;3.586285;8.283938;1.111240;3.049443;-0.042226;-0.833636;0.099355;0.000000;0.000000;16.429075;1.497970;0.000000;-1.766429;-0.000000;0.000000;-228.915309;1.881809;-0.300000;0.300000;-47.763802;0.000000;-26.330614;48.376761;-4.492327;184.172658;16.429075;26.330614;
2.384117;3.613856;8.339649;1.110380;3.040685;-0.042098;-0.831610;0.239418;0.000000;0.000000;15.204958;1.537871;0.000000;-1.495148;0.000000;0.000000;-222.232719;1.865702;-0.300000;0.300000;-47.647764;0.000000;-26.379930;48.376762;-4.492327;181.886499;15.204958;26.379930;
2.404521;3.641423;8.395231;1.109521;3.032390;-0.042142;-0.826725;0.336412;0.000000;0.000000;15.421650;1.598440;0.000000;-1.543005;-0.000000;0.000000;-240.542387;1.838581;-0.300000;0.300000;-47.367865;0.000000;-26.429145;48.376763;-4.492327;178.416135;15.421650;26.429145;
2.424816;3.668815;8.450343;1.108665;3.023956;-0.042076;-0.819898;0.444849;0.000000;0.000000;15.081735;1.569458;0.000000;-1.172007;0.000000;0.000000;-228.567814;1.851417;-0.300000;0.300000;-46.976669;0.000000;-26.478151;48.376763;-4.492326;180.076676;15.081735;26.478151;
2.445336;3.696481;8.505885;1.107802;3.015165;-0.041869;-0.810769;0.571086;0.000000;0.000000;16.436818;1.438503;0.000000;-1.139873;0.000000;0.000000;-212.993307;1.901431;-0.300000;0.300000;-46.453656;0.000000;-26.527620;48.376763;-4.492326;187.579823;16.436818;26.527620;
2.465744;3.723963;8.560938;1.106948;3.006536;-0.041690;-0.799115;0.678156;0.000000;0.000000;16.825693;1.426288;0.000000;-1.222187;-0.000000;0.000000;-214.622646;1.905047;-0.300000;0.300000;-45.785916;0.000000;-26.576575;48.376764;-4.492326;188.279718;16.825693;26.576575;
2.486076;3.751312;8.615608;1.106100;2.998099;-0.041555;-0.785327;0.760660;0.000000;0.000000;15.588660;1.497891;0.000000;-1.567152;-0.000000;0.000000;-218.550161;1.879887;-0.300000;0.300000;-44.995907;0.000000;-26.625141;48.376764;-4.492325;184.177175;15.588660;26.625141;
2.506495;3.778747;8.670336;1.105251;2.989579;-0.041376;-0.769795;0.836626;0.000000;0.000000;15.298296;1.491390;0.000000;-1.692703;-0.000000;0.000000;-213.009535;1.882026;-0.300000;0.300000;-44.105979;0.000000;-26.673758;48.376765;-4.492325;184.549663;15.298296;26.673758;
2.526825;3.806031;8.724646;1.104410;2.981860;-0.041499;-0.752786;0.830846;0.000000;0.000000;15.235057;1.625628;0.000000;-1.197485;0.000000;0.000000;-245.145103;1.822969;-0.300000;0.300000;-43.131442;0.000000;-26.721955;48.376765;-4.492324;176.858388;15.235057;26.721955;
2.547109;3.833228;8.778669;1.103568;2.974808;-0.041862;-0.735933;0.754684;0.000000;0.000000;15.973565;1.690897;0.000000;-1.617470;-0.000000;0.000000;-272.298561;1.788227;-0.300000;0.300000;-42.165878;0.000000;-26.770184;48.376766;-4.492324;173.118743;15.973565;26.770184;
2.567264;3.860234;8.832200;1.102725;2.967047;-0.041860;-0.720723;0.741902;0.000000;0.000000;16.910402;1.484137;0.000000;-1.253808;-0.000000;0.000000;-234.093645;1.883790;-0.300000;0.300000;-41.294362;0.000000;-26.818526;48.376766;-4.492324;184.965197;16.910402;26.818526;
2.587598;3.887454;8.886044;1.101874;2.959755;-0.042057;-0.705636;0.670027;0.000000;0.000000;15.062093;1.685610;0.000000;-1.313401;0.000000;0.000000;-256.004762;1.790215;-0.300000;0.300000;-40.429991;0.000000;-26.867296;48.376767;-4.492323;173.421671;15.062093;26.867296;
2.607921;3.914637;8.939701;1.101019;2.953138;-0.042501;-0.692020;0.528050;0.000000;0.000000;16.855328;1.675811;0.000000;-1.598348;-0.000000;0.000000;-284.365681;1.795106;-0.300000;0.300000;-39.649809;0.000000;-26.916267;48.376767;-4.492323;173.983088;16.855328;26.916267;
2.628244;3.941807;8.993218;1.100155;2.946243;-0.042782;-0.681288;0.411828;0.000000;0.000000;15.917840;1.676031;0.000000;-1.823643;0.000000;0.000000;-268.790592;1.794522;-0.300000;0.300000;-39.034920;0.000000;-26.965758;48.376768;-4.492323;173.970523;15.917840;26.965758;
2.648571;3.968963;9.046593;1.099285;2.938493;-0.042661;-0.672917;0.380644;0.000000;0.000000;16.859124;1.456103;0.000000;-1.397410;0.000000;0.000000;-226.216355;1.892653;-0.300000;0.300000;-38.555301;0.000000;-27.015582;48.376768;-4.492322;186.571440;16.859124;27.015582;
2.668967;3.996187;9.099988;1.098415;2.930219;-0.042308;-0.665153;0.398910;0.000000;0.000000;15.589416;1.421805;0.000000;-1.328716;-0.000000;0.000000;-199.978704;1.903776;-0.300000;0.300000;-38.110471;0.000000;-27.065437;48.376769;-4.492322;188.536557;15.589416;27.065437;
2.689287;4.023279;9.153010;1.097556;2.923483;-0.042582;-0.657047;0.265597;0.000000;0.000000;15.890361;1.667640;0.000000;-1.325344;0.000000;0.000000;-267.025303;1.797656;-0.300000;0.300000;-37.646036;0.000000;-27.114695;48.376769;-4.492322;174.451270;15.890361;27.114695;
2.709662;4.050428;9.206030;1.096688;2.916680;-0.042798;-0.651636;0.141428;0.000000;0.000000;16.000330;1.637410;0.000000;-1.839875;-0.000000;0.000000;-262.085594;1.813120;-0.300000;0.300000;-37.335974;0.000000;-27.164406;48.376770;-4.492321;176.183310;16.000330;27.164406;
2.730075;4.077609;9.258999;1.095814;2.909725;-0.042920;-0.648749;0.038186;0.000000;0.000000;15.944641;1.601837;0.000000;-1.448495;-0.000000;0.000000;-252.890622;1.830439;-0.300000;0.300000;-37.170568;0.000000;-27.214459;48.376770;-4.492321;178.221520;15.944641;27.214459;
2.750430;4.104696;9.311672;1.094941;2.902757;-0.042996;-0.647971;-0.052855;0.000000;0.000000;15.293420;1.627385;0.000000;-1.609388;-0.000000;0.000000;-248.637180;1.817349;-0.300000;0.300000;-37.126032;0.000000;-27.264517;48.376771;-4.492320;176.757714;15.293420;27.264517;
2.770829;4.131821;9.364305;1.094064;2.895389;-0.042881;-0.649050;-0.095126;0.000000;0.000000;15.886557;1.505799;0.000000;-1.794599;-0.000000;0.000000;-228.046089;1.872115;-0.300000;0.300000;-37.187806;0.000000;-27.314768;48.376771;-4.492320;183.724068;15.886557;27.314768;
2.791145;4.158814;9.416570;1.093193;2.888811;-0.043067;-0.650982;-0.204254;0.000000;0.000000;15.463490;1.666472;0.000000;-1.330208;-0.000000;0.000000;-260.549717;1.795936;-0.300000;0.300000;-37.298536;0.000000;-27.364683;48.376772;-4.492320;174.518208;15.463490;27.364683;
2.811473;4.185806;9.468723;1.092317;2.882489;-0.043331;-0.655134;-0.326311;0.000000;0.000000;15.955687;1.671392;0.000000;-1.475272;-0.000000;0.000000;-270.145558;1.792785;-0.300000;0.300000;-37.536436;0.000000;-27.414844;48.376772;-4.492319;174.236294;15.955687;27.414844;
2.831802;4.212786;9.520738;1.091436;2.875315;-0.043199;-0.661768;-0.346460;0.000000;0.000000;15.953236;1.499202;0.000000;-1.704102;-0.000000;0.000000;-227.944609;1.873695;-0.300000;0.300000;-37.916499;0.000000;-27.465313;48.376773;-4.492319;184.102065;15.953236;27.465313;
2.852127;4.239740;9.572593;1.090558;2.868868;-0.043355;-0.668810;-0.425662;0.000000;0.000000;15.039112;1.690528;0.000000;-1.423556;0.000000;0.000000;-258.985018;1.781185;-0.300000;0.300000;-38.319966;0.000000;-27.515620;48.376773;-4.492319;173.139879;15.039112;27.515620;
2.872450;4.266675;9.624301;1.089677;2.862129;-0.043356;-0.677460;-0.458842;0.000000;0.000000;15.065294;1.612598;0.000000;-1.458205;-0.000000;0.000000;-242.789013;1.822141;-0.300000;0.300000;-38.815614;0.000000;-27.566103;48.376774;-4.492318;177.604966;15.065294;27.566103;
2.892830;4.293669;9.676009;1.088793;2.855196;-0.043259;-0.686811;-0.458937;0.000000;0.000000;16.903457;1.463610;0.000000;-1.484666;-0.000000;0.000000;-232.074301;1.886235;-0.300000;0.300000;-39.351393;0.000000;-27.616728;48.376774;-4.492318;186.141348;16.903457;27.616728;
2.913236;4.320677;9.727635;1.087911;2.847806;-0.042954;-0.696176;-0.400395;0.000000;0.000000;15.890974;1.428266;0.000000;-1.131387;0.000000;0.000000;-208.632432;1.898267;-0.300000;0.300000;-39.887975;0.000000;-27.667306;48.376774;-4.492318;188.166386;15.890974;27.667306;
2.933659;4.347683;9.779145;1.087033;2.841747;-0.043203;-0.704354;-0.460077;0.000000;0.000000;15.642333;1.679412;0.000000;-1.614992;-0.000000;0.000000;-267.739582;1.785441;-0.300000;0.300000;-40.356496;0.000000;-27.717569;48.376775;-4.492317;173.776785;15.642333;27.717569;
2.953984;4.374548;9.830276;1.086155;2.835144;-0.043175;-0.713705;-0.447664;0.000000;0.000000;15.436915;1.566591;0.000000;-1.271529;-0.000000;0.000000;-238.735397;1.842536;-0.300000;0.300000;-40.892281;0.000000;-27.767881;48.376775;-4.492317;180.240941;15.436915;27.767881;
2.974271;4.401344;9.881170;1.085279;2.829549;-0.043546;-0.722787;-0.516819;0.000000;0.000000;16.108016;1.709493;0.000000;-1.450367;0.000000;0.000000;-282.657373;1.767271;-0.300000;0.300000;-41.412627;0.000000;-27.818066;48.376776;-4.492316;172.053268;16.108016;27.818066;
2.994777;4.428422;9.932488;1.084387;2.824039;-0.043945;-0.733385;-0.582679;0.000000;0.000000;16.752523;1.679106;0.000000;-1.445649;-0.000000;0.000000;-287.279702;1.784142;-0.300000;0.300000;-42.019860;0.000000;-27.869230;48.376776;-4.492316;173.794294;16.752523;27.869230;
3.015238;4.455432;9.983567;1.083487;2.817355;-0.043801;-0.745307;-0.517333;0.000000;0.000000;15.096883;1.550266;0.000000;-1.543469;-0.000000;0.000000;-230.224020;1.848763;-0.300000;0.300000;-42.702922;0.000000;-27.920746;48.376777;-4.492316;181.176282;15.096883;27.920746;
3.035660;4.482374;10.034407;1.082593;2.811261;-0.043886;-0.755872;-0.492707;0.000000;0.000000;16.484982;1.561236;0.000000;-1.475256;-0.000000;0.000000;-254.476984;1.843369;-0.300000;0.300000;-43.308270;0.000000;-27.971999;48.376777;-4.492315;180.547761;16.484982;27.971999;
3.055994;4.509186;10.084893;1.081700;2.804726;-0.043747;-0.765891;-0.411057;0.000000;0.000000;15.503749;1.524074;0.000000;-1.779756;0.000000;0.000000;-230.360667;1.859456;-0.300000;0.300000;-43.882294;0.000000;-28.023128;48.376778;-4.492315;182.676978;15.503749;28.023128;
3.076182;4.535789;10.134877;1.080817;2.798454;-0.043685;-0.774189;-0.339569;0.000000;0.000000;15.654178;1.544621;0.000000;-1.274247;0.000000;0.000000;-237.987113;1.850088;-0.300000;0.300000;-44.357762;0.000000;-28.073730;48.376778;-4.492315;181.499710;15.654178;28.073730;
3.096419;4.562440;10.184845;1.079933;2.791894;-0.043490;-0.781061;-0.234437;0.000000;0.000000;16.653506;1.434854;0.000000;-1.472689;0.000000;0.000000;-222.902032;1.893317;-0.300000;0.300000;-44.751484;0.000000;-28.124382;48.376779;-4.492314;187.788920;16.653506;28.124382;
3.116816;4.589283;10.235067;1.079046;2.785062;-0.043186;-0.785842;-0.102827;0.000000;0.000000;15.033565;1.468311;0.000000;-1.601787;-0.000000;0.000000;-210.113286;1.880861;-0.300000;0.300000;-45.025458;0.000000;-28.175206;48.376779;-4.492314;185.871963;15.033565;28.175206;
3.137180;4.616063;10.285062;1.078167;2.779250;-0.043303;-0.787936;-0.059707;0.000000;0.000000;15.832647;1.598640;0.000000;-1.487988;-0.000000;0.000000;-254.574982;1.823357;-0.300000;0.300000;-45.145435;0.000000;-28.225594;48.376779;-4.492314;178.404648;15.832647;28.225594;
3.157503;4.642776;10.334828;1.077287;2.773612;-0.043462;-0.789150;-0.027016;0.000000;0.000000;16.643595;1.567226;0.000000;-1.523849;-0.000000;0.000000;-259.859806;1.838112;-0.300000;0.300000;-45.214959;0.000000;-28.276017;48.376780;-4.492313;180.204549;16.643595;28.276017;
3.177885;4.669556;10.384614;1.076401;2.767745;-0.043504;-0.789701;0.028126;0.000000;0.000000;16.716166;1.517174;0.000000;-1.221945;0.000000;0.000000;-247.942453;1.860136;-0.300000;0.300000;-45.246508;0.000000;-28.326771;48.376780;-4.492313;183.072357;16.716166;28.326771;
3.198212;4.696251;10.434138;1.075517;2.762613;-0.043828;-0.789129;0.020872;0.000000;0.000000;16.874715;1.627552;0.000000;-1.376593;-0.000000;0.000000;-279.189890;1.807259;-0.300000;0.300000;-45.213750;0.000000;-28.377439;48.376781;-4.492312;176.748162;16.874715;28.377439;
3.218451;4.722825;10.483331;1.074630;2.756722;-0.043786;-0.788706;0.086783;0.000000;0.000000;15.394959;1.566091;0.000000;-1.581413;0.000000;0.000000;-240.725818;1.837399;-0.300000;0.300000;-45.189547;0.000000;-28.428262;48.376781;-4.492312;180.269590;15.394959;28.428262;
3.238738;4.749449;10.532513;1.073741;2.750844;-0.043739;-0.786946;0.150610;0.000000;0.000000;15.337001;1.565185;0.000000;-1.585666;-0.000000;0.000000;-239.815117;1.837408;-0.300000;0.300000;-45.088673;0.000000;-28.479158;48.376782;-4.492312;180.321484;15.337001;28.479158;
3.259107;4.776167;10.581765;1.072850;2.744311;-0.043406;-0.783878;0.270206;0.000000;0.000000;15.303513;1.440618;0.000000;-1.276080;0.000000;0.000000;-208.246517;1.888789;-0.300000;0.300000;-44.912900;0.000000;-28.530204;48.376782;-4.492311;187.458696;15.303513;28.530204;
3.279432;4.802809;10.630771;1.071968;2.738748;-0.043473;-0.778386;0.299136;0.000000;0.000000;16.736865;1.520542;0.000000;-1.685692;0.000000;0.000000;-250.364304;1.856785;-0.300000;0.300000;-44.598229;0.000000;-28.580752;48.376783;-4.492311;182.879368;16.736865;28.580752;
3.299855;4.829567;10.679889;1.071080;2.732658;-0.043307;-0.772277;0.370217;0.000000;0.000000;15.775806;1.477659;0.000000;-1.738720;0.000000;0.000000;-225.094303;1.874166;-0.300000;0.300000;-44.248194;0.000000;-28.631623;48.376783;-4.492311;185.336354;15.775806;28.631623;
3.320264;4.856290;10.728838;1.070196;2.727159;-0.043377;-0.764721;0.382622;0.000000;0.000000;16.372650;1.538535;0.000000;-1.447039;-0.000000;0.000000;-250.087620;1.848055;-0.300000;0.300000;-43.815299;0.000000;-28.682261;48.376783;-4.492310;181.848465;16.372650;28.682261;
3.340682;4.883017;10.777690;1.069311;2.721655;-0.043423;-0.756908;0.391002;0.000000;0.000000;15.923899;1.556369;0.000000;-1.561319;0.000000;0.000000;-247.909375;1.839464;-0.300000;0.300000;-43.367662;0.000000;-28.733008;48.376784;-4.492310;180.826653;15.923899;28.733008;
3.361138;4.909780;10.826508;1.068422;2.715834;-0.043320;-0.748910;0.423276;0.000000;0.000000;16.409540;1.466184;0.000000;-1.503282;-0.000000;0.000000;-231.704458;1.877611;-0.300000;0.300000;-42.909403;0.000000;-28.783901;48.376784;-4.492310;185.993849;16.409540;28.783901;
3.381548;4.936470;10.875089;1.067538;2.710469;-0.043389;-0.740271;0.409054;0.000000;0.000000;16.732173;1.515519;0.000000;-1.297519;0.000000;0.000000;-250.133451;1.857043;-0.300000;0.300000;-42.414421;0.000000;-28.834559;48.376785;-4.492309;183.167161;16.732173;28.834559;
3.401897;4.963071;10.923407;1.066655;2.705694;-0.043680;-0.731947;0.337299;0.000000;0.000000;15.674755;1.689804;0.000000;-1.525827;-0.000000;0.000000;-274.831577;1.767896;-0.300000;0.300000;-41.937496;0.000000;-28.885148;48.376785;-4.492309;173.181359;15.674755;28.885148;
3.422229;4.989644;10.971574;1.065767;2.699771;-0.043452;-0.725090;0.372757;0.000000;0.000000;15.037724;1.491907;0.000000;-1.443861;0.000000;0.000000;-219.447341;1.866271;-0.300000;0.300000;-41.544573;0.000000;-28.936031;48.376786;-4.492308;184.520028;15.037724;28.936031;
3.442514;5.016141;11.019502;1.064886;2.694461;-0.043471;-0.717528;0.347269;0.000000;0.000000;15.466672;1.570733;0.000000;-1.500736;-0.000000;0.000000;-245.266583;1.830528;-0.300000;0.300000;-41.111337;0.000000;-28.986533;48.376786;-4.492308;180.003639;15.466672;28.986533;
3.462833;5.042673;11.067393;1.064003;2.689318;-0.043545;-0.710472;0.302729;0.000000;0.000000;16.216466;1.547381;0.000000;-1.867412;0.000000;0.000000;-251.535515;1.841177;-0.300000;0.300000;-40.707038;0.000000;-29.037143;48.376787;-4.492308;181.341617;16.216466;29.037143;
3.483122;5.069157;11.115098;1.063119;2.683802;-0.043438;-0.704330;0.294017;0.000000;0.000000;15.623723;1.504377;0.000000;-1.453968;0.000000;0.000000;-231.862562;1.859929;-0.300000;0.300000;-40.355127;0.000000;-29.087763;48.376787;-4.492307;183.805544;15.623723;29.087763;
3.503384;5.095594;11.162620;1.062239;2.678699;-0.043489;-0.698372;0.244762;0.000000;0.000000;16.800425;1.501701;0.000000;-1.454654;0.000000;0.000000;-248.835908;1.860691;-0.300000;0.300000;-40.013789;0.000000;-29.138192;48.376787;-4.492307;183.958849;16.800425;29.138192;
3.523677;5.122061;11.210098;1.061356;2.673907;-0.043657;-0.693406;0.164971;0.000000;0.000000;15.205464;1.661559;0.000000;-1.588572;0.000000;0.000000;-261.897303;1.781056;-0.300000;0.300000;-39.729213;0.000000;-29.188756;48.376788;-4.492307;174.799661;15.205464;29.188756;
3.544071;5.148656;11.257705;1.060466;2.668313;-0.043471;-0.690041;0.163603;0.000000;0.000000;16.402872;1.430856;0.000000;-1.389064;0.000000;0.000000;-223.949512;1.887845;-0.300000;0.300000;-39.536444;0.000000;-29.239769;48.376788;-4.492306;188.017968;16.402872;29.239769;
3.564372;5.175116;11.304973;1.059584;2.663991;-0.043805;-0.686720;0.041337;0.000000;0.000000;16.079373;1.674602;0.000000;-1.240612;-0.000000;0.000000;-280.179425;1.772608;-0.300000;0.300000;-39.346146;0.000000;-29.290333;48.376789;-4.492306;174.052395;16.079373;29.290333;
3.584760;5.201688;11.352343;1.058690;2.658816;-0.043756;-0.685877;0.006831;0.000000;0.000000;16.397480;1.486699;0.000000;-1.645922;0.000000;0.000000;-239.793105;1.865501;-0.300000;0.300000;-39.297857;0.000000;-29.341505;48.376789;-4.492306;184.818436;16.397480;29.341505;
3.605164;5.228271;11.399633;1.057798;2.654900;-0.044227;-0.685738;-0.146580;0.000000;0.000000;16.705907;1.697661;0.000000;-1.587752;0.000000;0.000000;-296.578535;1.758046;-0.300000;0.300000;-39.289872;0.000000;-29.392657;48.376790;-4.492305;172.731177;16.705907;29.392657;
3.625475;5.254736;11.446615;1.056899;2.649920;-0.044201;-0.688715;-0.182067;0.000000;0.000000;15.487521;1.558979;0.000000;-1.208593;-0.000000;0.000000;-244.701739;1.832352;-0.300000;0.300000;-39.460450;0.000000;-29.444124;48.376790;-4.492305;180.677085;15.487521;29.444124;
3.645873;5.281308;11.493688;1.055998;2.644536;-0.043998;-0.692429;-0.171647;0.000000;0.000000;15.535337;1.476134;0.000000;-1.377324;0.000000;0.000000;-225.165965;1.868737;-0.300000;0.300000;-39.673243;0.000000;-29.495784;48.376790;-4.492304;185.423770;15.535337;29.495784;
3.666230;5.307814;11.540545;1.055102;2.640396;-0.044310;-0.695923;-0.274392;0.000000;0.000000;16.723092;1.623446;0.000000;-1.546290;-0.000000;0.000000;-280.596450;1.798612;-0.300000;0.300000;-39.873447;0.000000;-29.547102;48.376791;-4.492304;176.983397;16.723092;29.547102;
3.686580;5.334311;11.587289;1.054200;2.636153;-0.044549;-0.701507;-0.354597;0.000000;0.000000;16.129305;1.638539;0.000000;-1.783097;0.000000;0.000000;-274.268150;1.789910;-0.300000;0.300000;-40.193372;0.000000;-29.598765;48.376791;-4.492304;176.118604;16.129305;29.598765;
3.707051;5.360966;11.634213;1.053288;2.630974;-0.044378;-0.708766;-0.333788;0.000000;0.000000;15.542646;1.494563;0.000000;-1.197297;0.000000;0.000000;-230.656233;1.859934;-0.300000;0.300000;-40.609291;0.000000;-29.651018;48.376792;-4.492303;184.367874;15.542646;29.651018;
3.727473;5.387547;11.680905;1.052382;2.626632;-0.044547;-0.715582;-0.382440;0.000000;0.000000;16.784007;1.561587;0.000000;-1.170307;0.000000;0.000000;-267.008082;1.828910;-0.300000;0.300000;-40.999845;0.000000;-29.702943;48.376792;-4.492303;180.527668;16.784007;29.702943;
3.747798;5.414000;11.727278;1.051477;2.621184;-0.044217;-0.723356;-0.310252;0.000000;0.000000;15.132226;1.446457;0.000000;-1.837025;-0.000000;0.000000;-212.953484;1.878689;-0.300000;0.300000;-41.445220;0.000000;-29.754821;48.376792;-4.492303;187.124100;15.132226;29.754821;
3.768223;5.440570;11.773757;1.050574;2.616985;-0.044424;-0.729692;-0.351437;0.000000;0.000000;16.892301;1.565373;0.000000;-1.314437;-0.000000;0.000000;-270.163694;1.826172;-0.300000;0.300000;-41.808294;0.000000;-29.806566;48.376793;-4.492302;180.310717;16.892301;29.806566;
3.788623;5.467107;11.820080;1.049667;2.611975;-0.044261;-0.736862;-0.303633;0.000000;0.000000;15.850170;1.473889;0.000000;-1.857200;-0.000000;0.000000;-230.797772;1.867069;-0.300000;0.300000;-42.219057;0.000000;-29.858489;48.376793;-4.492302;185.552385;15.850170;29.858489;
3.809006;5.493613;11.866253;1.048765;2.607852;-0.044464;-0.743051;-0.330813;0.000000;0.000000;16.258545;1.605504;0.000000;-1.606416;0.000000;0.000000;-270.097136;1.804796;-0.300000;0.300000;-42.573659;0.000000;-29.910180;48.376794;-4.492302;178.011422;16.258545;29.910180;
3.829411;5.520147;11.912378;1.047858;2.603922;-0.044728;-0.749801;-0.365436;0.000000;0.000000;15.796397;1.674792;0.000000;-1.115346;0.000000;0.000000;-277.751924;1.765698;-0.300000;0.300000;-42.960419;0.000000;-29.962164;48.376794;-4.492301;174.041475;15.796397;29.962164;
3.849836;5.546710;11.958457;1.046944;2.599684;-0.044837;-0.757265;-0.360200;0.000000;0.000000;15.513974;1.624533;0.000000;-1.602151;0.000000;0.000000;-262.334429;1.793617;-0.300000;0.300000;-43.388089;0.000000;-30.014509;48.376795;-4.492301;176.921109;15.513974;30.014509;
3.870264;5.573274;12.004440;1.046028;2.595225;-0.044833;-0.764623;-0.324066;0.000000;0.000000;16.393408;1.514858;0.000000;-1.864181;0.000000;0.000000;-250.524028;1.847847;-0.300000;0.300000;-43.809669;0.000000;-30.066986;48.376795;-4.492301;183.205002;16.393408;30.066986;
3.890680;5.599820;12.050295;1.045113;2.591117;-0.044962;-0.771239;-0.311337;0.000000;0.000000;15.585755;1.630158;0.000000;-1.351302;0.000000;0.000000;-265.176073;1.789529;-0.300000;0.300000;-44.188748;0.000000;-30.119429;48.376795;-4.492300;176.598800;15.585755;30.119429;
3.911024;5.626272;12.095891;1.044198;2.587713;-0.045364;-0.777573;-0.352387;0.000000;0.000000;16.938246;1.662490;0.000000;-1.164373;-0.000000;0.000000;-295.880817;1.770737;-0.300000;0.300000;-44.551647;0.000000;-30.171838;48.376796;-4.492300;174.746365;16.938246;30.171838;
3.931448;5.652835;12.141584;1.043272;2.583163;-0.045256;-0.784770;-0.279673;0.000000;0.000000;16.033927;1.500567;0.000000;-1.826634;-0.000000;0.000000;-242.084487;1.852995;-0.300000;0.300000;-44.964029;0.000000;-30.224926;48.376796;-4.492299;184.023839;16.033927;30.224926;
3.951776;5.679269;12.186956;1.042352;2.578723;-0.045178;-0.790456;-0.209045;0.000000;0.000000;15.788617;1.524767;0.000000;-1.311615;-0.000000;0.000000;-244.652805;1.841640;-0.300000;0.300000;-45.289764;0.000000;-30.277636;48.376797;-4.492299;182.637272;15.788617;30.277636;
3.972093;5.705684;12.232201;1.041434;2.573946;-0.044945;-0.794703;-0.103407;0.000000;0.000000;15.437345;1.475505;0.000000;-1.407804;-0.000000;0.000000;-227.280078;1.862983;-0.300000;0.300000;-45.533109;0.000000;-30.330226;48.376797;-4.492299;185.459813;15.437345;30.330226;
3.992479;5.732182;12.277491;1.040518;2.569756;-0.044964;-0.796811;-0.049340;0.000000;0.000000;16.579543;1.510264;0.000000;-1.276405;-0.000000;0.000000;-253.608857;1.847434;-0.300000;0.300000;-45.653891;0.000000;-30.382723;48.376797;-4.492298;183.468221;16.579543;30.382723;
4.012801;5.758594;12.322541;1.039604;2.565119;-0.044774;-0.797813;0.047216;0.000000;0.000000;15.696000;1.472302;0.000000;-1.357546;0.000000;0.000000;-230.736771;1.863557;-0.300000;0.300000;-45.711340;0.000000;-30.435076;48.376798;-4.492298;185.643322;15.696000;30.435076;
4.033204;5.785107;12.367667;1.038690;2.561549;-0.045037;-0.796850;0.046938;0.000000;0.000000;16.638093;1.608503;0.000000;-1.223416;-0.000000;0.000000;-279.513315;1.797831;-0.300000;0.300000;-45.656143;0.000000;-30.487418;48.376798;-4.492298;177.839592;16.638093;30.487418;
4.053615;5.811632;12.412720;1.037771;2.556854;-0.044800;-0.795892;0.147532;0.000000;0.000000;15.603016;1.457801;0.000000;-1.200890;0.000000;0.000000;-226.114851;1.868788;-0.300000;0.300000;-45.601253;0.000000;-30.540086;48.376799;-4.492297;186.474171;15.603016;30.540086;
4.074041;5.838170;12.457701;1.036856;2.553357;-0.045069;-0.792879;0.138380;0.000000;0.000000;16.791274;1.598888;0.000000;-1.293673;-0.000000;0.000000;-280.222108;1.801998;-0.300000;0.300000;-45.428594;0.000000;-30.592516;48.376799;-4.492297;178.390464;16.791274;30.592516;
4.094483;5.864735;12.502633;1.035935;2.548970;-0.044938;-0.790050;0.207711;0.000000;0.000000;16.833396;1.434451;0.000000;-1.867735;0.000000;0.000000;-237.894306;1.877331;-0.300000;0.300000;-45.266512;0.000000;-30.645304;48.376799;-4.492297;187.811993;16.833396;30.645304;
4.114895;5.891255;12.547396;1.035018;2.544921;-0.044940;-0.785810;0.243658;0.000000;0.000000;16.643282;1.494229;0.000000;-1.130343;-0.000000;0.000000;-251.796903;1.852145;-0.300000;0.300000;-45.023589;0.000000;-30.697860;48.376800;-4.492296;184.387006;16.643282;30.697860;
4.135324;5.917796;12.592100;1.034100;2.541626;-0.045250;-0.780832;0.208280;0.000000;0.000000;15.890265;1.690662;0.000000;-1.760051;0.000000;0.000000;-285.501865;1.747991;-0.300000;0.300000;-44.738392;0.000000;-30.750461;48.376800;-4.492296;173.132176;15.890265;30.750461;
4.155720;5.944302;12.636652;1.033177;2.537840;-0.045323;-0.776584;0.216392;0.000000;0.000000;15.845876;1.581519;0.000000;-1.785310;0.000000;0.000000;-261.308610;1.809207;-0.300000;0.300000;-44.494989;0.000000;-30.803342;48.376801;-4.492296;179.385664;15.845876;30.803342;
4.176165;5.970872;12.681217;1.032250;2.534411;-0.045536;-0.772160;0.189130;0.000000;0.000000;15.829137;1.652763;0.000000;-1.786650;0.000000;0.000000;-276.973795;1.769455;-0.300000;0.300000;-44.241512;0.000000;-30.856432;48.376801;-4.492295;175.303665;15.829137;30.856432;
4.196579;5.997408;12.725632;1.031320;2.530694;-0.045602;-0.768299;0.187634;0.000000;0.000000;15.029449;1.647829;0.000000;-1.603249;0.000000;0.000000;-262.175740;1.771776;-0.300000;0.300000;-44.020299;0.000000;-30.909692;48.376801;-4.492295;175.586382;15.029449;30.909692;
4.216986;6.023936;12.769941;1.030390;2.526517;-0.045458;-0.764470;0.226731;0.000000;0.000000;16.526026;1.450462;0.000000;-1.231494;-0.000000;0.000000;-239.499574;1.868775;-0.300000;0.300000;-43.800911;0.000000;-30.963012;48.376802;-4.492294;186.894625;16.526026;30.963012;
4.237410;6.050485;12.814190;1.029461;2.523395;-0.045757;-0.759839;0.165918;0.000000;0.000000;15.731526;1.709110;0.000000;-1.382100;-0.000000;0.000000;-287.182854;1.733713;-0.300000;0.300000;-43.535581;0.000000;-31.016209;48.376802;-4.492294;172.075206;15.731526;31.016209;
4.257751;6.076933;12.858178;1.028531;2.519987;-0.045903;-0.756464;0.133240;0.000000;0.000000;16.257923;1.594292;0.000000;-1.655348;0.000000;0.000000;-272.184935;1.800016;-0.300000;0.300000;-43.342219;0.000000;-31.069535;48.376803;-4.492294;178.653794;16.257923;31.069535;
4.278147;6.103459;12.902204;1.027594;2.516525;-0.046013;-0.753747;0.105097;0.000000;0.000000;16.138442;1.588052;0.000000;-1.321557;-0.000000;0.000000;-268.957905;1.802846;-0.300000;0.300000;-43.186511;0.000000;-31.123179;48.376803;-4.492293;179.011309;16.138442;31.123179;
4.298548;6.129995;12.946154;1.026656;2.512390;-0.045821;-0.751603;0.140149;0.000000;0.000000;15.030211;1.524673;0.000000;-1.442713;-0.000000;0.000000;-236.530180;1.834316;-0.300000;0.300000;-43.063662;0.000000;-31.176963;48.376803;-4.492293;182.642693;15.030211;31.176963;
4.318893;6.156457;12.989886;1.025723;2.508904;-0.045897;-0.748751;0.114762;0.000000;0.000000;15.898507;1.585767;0.000000;-1.429468;0.000000;0.000000;-264.865482;1.803063;-0.300000;0.300000;-42.900293;0.000000;-31.230376;48.376804;-4.492293;179.142258;15.898507;31.230376;
4.339269;6.182961;13.033599;1.024788;2.505613;-0.046043;-0.746413;0.071610;0.000000;0.000000;16.621751;1.568407;0.000000;-1.710241;-0.000000;0.000000;-272.954043;1.811662;-0.300000;0.300000;-42.766316;0.000000;-31.283958;48.376804;-4.492292;180.136889;16.621751;31.283958;
4.359699;6.209543;13.077345;1.023848;2.502510;-0.046256;-0.744950;0.012087;0.000000;0.000000;16.366257;1.620136;0.000000;-1.382043;-0.000000;0.000000;-280.998655;1.783290;-0.300000;0.300000;-42.682494;0.000000;-31.337853;48.376805;-4.492292;177.173021;16.366257;31.337853;
4.380032;6.236007;13.120806;1.022907;2.499461;-0.046463;-0.744704;-0.047005;0.000000;0.000000;16.139956;1.640406;0.000000;-1.422950;-0.000000;0.000000;-281.759397;1.771210;-0.300000;0.300000;-42.668412;0.000000;-31.391741;48.376805;-4.492292;176.011671;16.139956;31.391741;
4.400433;6.262568;13.164334;1.021959;2.495761;-0.046380;-0.745663;-0.041545;0.000000;0.000000;15.875053;1.524633;0.000000;-1.537059;0.000000;0.000000;-250.956948;1.832090;-0.300000;0.300000;-42.723357;0.000000;-31.446051;48.376805;-4.492291;182.644984;15.875053;31.446051;
4.420841;6.289139;13.207786;1.021013;2.492368;-0.046420;-0.746511;-0.061612;0.000000;0.000000;15.667984;1.594501;0.000000;-1.459556;-0.000000;0.000000;-264.025043;1.795863;-0.300000;0.300000;-42.771934;0.000000;-31.500282;48.376806;-4.492291;178.641804;15.667984;31.500282;
